City,Cloudiness,Country,Date,Humidity,Lat,Lng,Max Temp,Wind Speed
Atuona,17,PF,1571167236,74,-9.8,-139.03,79.03399999999999,11.119
Kyabram,100,AU,1571167236,76,-36.31,145.05,55.994,0.45
Am Timan,100,TD,1571167236,82,11.04,20.28,77.23400000000001,0.713
Kijang,20,KR,1571167692,81,35.24,129.21,51.8,2.6
Avarua,1,CK,1571167692,69,-21.21,-159.78,75.2,3.6
Albany,20,US,1571167238,36,42.65,-73.75,62.006,1.5
Reisterstown,1,US,1571167238,37,39.47,-76.83,71.99600000000001,1.5
Glasgow,20,GB,1571167693,76,55.86,-4.24,51.8,2.6
Ponta do Sol,0,BR,1571167693,31,-20.63,-46.0,87.314,1.916
Waipawa,100,NZ,1571167239,96,-39.94,176.59,51.998000000000005,0.89
Ilulissat,75,GL,1571167239,44,69.22,-51.1,21.2,6.2
Dalvik,75,SE,1571167694,93,57.79,14.13,51.998000000000005,3.6
General Pico,100,AR,1571167694,82,-35.66,-63.75,45.734,3.96
Kapaa,20,US,1571167694,74,22.08,-159.32,82.4,6.7
Leningradskiy,98,RU,1571167241,86,69.38,178.42,33.854,5.272
Tondano,40,ID,1571167241,94,1.3,124.91,73.4,0.862
Hobart,20,AU,1571167241,86,-42.88,147.33,41.0,5.7
Hinton,100,CA,1571167242,87,53.4,-117.57,33.674,1.836
Awbari,0,LY,1571167242,29,26.59,12.77,77.95400000000001,2.509
Luderitz,0,NA,1571167242,59,-26.65,15.16,66.2,5.7
Bredasdorp,14,ZA,1571167243,81,-34.53,20.04,51.8,0.5
Abaete,0,BR,1571167243,22,-19.16,-45.45,92.174,2.533
Cherskiy,100,RU,1571167243,96,68.75,161.3,19.616,3.188
Virginia Beach,75,US,1571167244,73,36.85,-75.98,75.2,3.1
Ushuaia,0,AR,1571167697,62,-54.81,-68.31,51.8,1.517
Comarapa,93,BO,1571167244,76,-17.91,-64.53,65.174,2.149
Vaini,100,IN,1571167244,86,15.34,74.49,72.914,2.671
Guerrero Negro,0,MX,1571167245,47,27.97,-114.04,75.614,4.224
Komsomolskiy,100,RU,1571167245,84,67.55,63.78,29.174,8.34
Norman Wells,75,CA,1571167246,79,65.28,-126.83,24.8,9.3
Lebu,20,ET,1571167246,55,8.96,38.73,60.8,5.1
Carnarvon,41,ZA,1571167246,11,-30.97,22.13,68.774,5.498
Puerto Ayora,20,EC,1571167247,60,-0.74,-90.35,75.2,10.3
Murgud,74,IN,1571167247,77,16.43,74.26,74.714,3.153
Coquimbo,57,CL,1571167247,59,-29.95,-71.34,66.2,6.7
Nanortalik,0,GL,1571167247,59,60.14,-45.24,38.174,2.84
Soledade,40,BR,1571167248,54,-7.06,-36.37,84.2,6.7
Nokaneng,24,BW,1571167248,12,-19.66,22.19,84.254,2.981
Mar del Plata,30,AR,1571167248,52,-46.43,-67.52,52.214,6.219
Arraial do Cabo,16,BR,1571167249,74,-22.97,-42.02,82.4,4.6
Longyearbyen,20,NO,1571167249,79,78.22,15.63,21.2,1.0
Cape Town,37,ZA,1571167700,82,-33.93,18.42,62.995999999999995,5.7
Yerbogachen,100,RU,1571167250,95,61.28,108.01,34.934,3.662
Katsuura,75,JP,1571167250,63,33.93,134.5,60.8,5.7
Khatanga,84,RU,1571167250,95,71.98,102.47,10.994,5.093
Faanui,5,PF,1571167251,80,-16.48,-151.75,79.574,5.903
Povarovo,75,RU,1571167251,69,56.08,37.05,41.0,2.0
Rikitea,17,PF,1571167251,89,-23.12,-134.97,73.274,3.644
Mahebourg,75,MU,1571167251,78,-20.41,57.7,73.4,1.5
Kifri,0,IQ,1571167252,15,34.69,44.96,79.574,4.244
Hamilton,75,CA,1571167252,62,43.26,-79.87,60.998000000000005,4.6
Saint-Georges,2,CA,1571167252,53,46.12,-70.67,53.006,3.58
Bluff,0,AU,1571167253,89,-23.58,149.07,67.334,3.844
Vuktyl,100,RU,1571167253,96,63.86,57.31,34.574,4.427
Mayo,90,CA,1571167253,67,63.59,-135.9,17.6,3.6
San Cristobal,98,HN,1571167254,75,14.68,-86.92,77.414,1.94
Lasa,20,CY,1571167254,49,34.92,32.53,78.80000000000001,2.1
Tiksi,100,RU,1571167255,88,71.64,128.87,14.594000000000001,2.578
Barrow,98,AR,1571167255,39,-38.31,-60.23,58.514,3.199
Singaparna,93,ID,1571167255,92,-7.35,108.11,69.314,1.077
Fairbanks,40,US,1571167256,57,64.84,-147.72,24.997999999999998,2.1
Kirakira,33,SB,1571167256,87,-10.46,161.92,73.45400000000001,3.42
La Ronge,90,CA,1571167257,69,55.1,-105.3,37.4,1.5
Iqaluit,90,CA,1571167257,90,63.75,-68.52,32.0,4.1
Muros,75,ES,1571167257,93,42.77,-9.06,64.994,8.2
Eyl,1,SO,1571167258,78,7.98,49.82,81.19399999999999,4.348
Kaitangata,19,NZ,1571167259,89,-46.28,169.85,46.994,0.89
The Valley,40,AI,1571167259,74,18.22,-63.06,89.6,3.1
Victoria Point,20,AU,1571167260,100,-27.58,153.3,68.0,2.1
Yellowknife,90,CA,1571167260,92,62.45,-114.38,30.2,7.7
Codrington,75,AU,1571167260,93,-28.95,153.24,64.4,1.276
Maiduguri,97,NG,1571167261,47,11.84,13.15,83.714,3.739
Port Alfred,33,ZA,1571167261,85,-33.59,26.89,60.008,1.79
Nsukka,91,NG,1571167262,90,6.86,7.39,74.714,2.051
San Patricio,100,PY,1571167262,89,-26.98,-56.83,61.754000000000005,2.986
Riberalta,75,BO,1571167262,74,-11.0,-66.08,86.0,4.1
Hilo,20,US,1571167263,65,19.71,-155.08,82.4,2.6
Thompson,90,CA,1571167263,86,55.74,-97.86,33.8,3.6
Busselton,18,AU,1571167263,66,-33.64,115.35,46.004000000000005,2.234
Ballina,90,IE,1571167264,81,54.11,-9.15,53.996,5.7
Talara,0,PE,1571167264,100,-4.58,-81.27,62.6,7.2
Ocho Rios,20,JM,1571167265,70,18.41,-77.1,87.80000000000001,5.7
Glendive,20,US,1571167265,52,47.11,-104.71,44.6,3.6
Jamestown,94,AU,1571167265,83,-33.21,138.6,53.834,0.662
Bambous Virieux,75,MU,1571167266,78,-20.34,57.76,73.4,1.5
Richards Bay,89,ZA,1571167266,91,-28.77,32.06,70.214,8.876
Beyneu,0,KZ,1571167266,52,45.32,55.19,64.45400000000001,2.425
Yar-Sale,100,RU,1571167267,93,66.83,70.83,32.414,10.578
New Norfolk,20,AU,1571167267,86,-42.78,147.06,41.0,5.7
Qaanaaq,100,GL,1571167267,87,77.48,-69.36,19.454,5.666
Palmaner,100,IN,1571167267,91,13.2,78.75,73.45400000000001,1.141
Fernley,20,US,1571167268,20,39.61,-119.25,68.0,1.861
Nikolskoye,20,RU,1571167268,86,59.7,30.79,39.992000000000004,3.0
Haines Junction,100,CA,1571167268,87,60.75,-137.51,19.616,1.798
Srandakan,70,ID,1571167269,92,-7.94,110.25,71.834,2.402
Shahreza,0,IR,1571167269,43,32.01,51.87,55.094,2.089
Prado,8,CO,1571167269,48,3.75,-74.93,84.974,3.042
Alice Springs,19,AU,1571167270,17,-23.7,133.88,82.4,5.1
Lompoc,1,US,1571167270,67,34.64,-120.46,75.992,6.7
Hithadhoo,100,MV,1571167270,76,-0.6,73.08,80.834,3.9
Kailua,20,US,1571167270,54,21.39,-157.74,84.2,5.1
Sao Filipe,30,CV,1571167271,87,14.9,-24.5,76.51400000000001,6.754
Grand Gaube,75,MU,1571167271,78,-20.01,57.66,73.4,1.5
Torbay,75,CA,1571167272,75,47.66,-52.73,48.002,5.1
Victoria,75,BN,1571167272,88,5.28,115.24,80.6,2.1
Tupik,3,RU,1571167272,84,54.43,119.94,26.294,1.269
Sechura,23,PE,1571167272,93,-5.56,-80.82,60.494,7.178
Vila Franca do Campo,75,PT,1571167273,83,37.72,-25.43,71.006,8.2
Yingcheng,100,CN,1571167273,63,30.93,113.57,60.8,1.0
Athabasca,100,CA,1571167273,78,54.72,-113.29,37.274,7.619
Mataura,58,NZ,1571167274,85,-46.19,168.86,51.008,0.566
Bethel,90,US,1571167274,92,60.79,-161.76,30.2,3.1
Pangnirtung,75,CA,1571167274,57,66.15,-65.72,32.0,0.473
Henties Bay,23,NA,1571167275,82,-22.12,14.28,62.006,3.847
Mount Isa,27,AU,1571167275,47,-20.73,139.49,78.80000000000001,2.1
Laguna,75,BZ,1571167275,79,16.17,-88.94,84.2,2.1
Nhulunbuy,57,AU,1571167276,94,-12.18,136.78,68.0,4.023
Hambantota,100,LK,1571167276,75,6.12,81.12,82.274,2.355
Aklavik,90,CA,1571167276,85,68.22,-135.01,17.6,4.6
Somerset East,2,ZA,1571167276,36,-32.72,25.59,59.594,1.101
Faya,2,SA,1571167277,25,18.39,42.45,68.0,6.2
Castanheira de Pera,20,PT,1571167278,72,40.0,-8.21,62.995999999999995,3.1
Hermanus,44,ZA,1571167278,85,-34.42,19.24,60.998000000000005,2.68
Punta Arenas,0,CL,1571167278,70,-53.16,-70.91,55.400000000000006,4.6
Castro,90,CL,1571167279,81,-42.48,-73.76,51.8,4.1
Berdigestyakh,87,RU,1571167279,97,62.1,126.7,14.773999999999997,2.116
Boulder City,1,US,1571167279,13,35.98,-114.83,80.006,1.859
Port Elizabeth,1,US,1571167280,30,39.31,-74.98,71.006,1.5
Georgetown,75,GY,1571167280,78,6.8,-58.16,87.80000000000001,2.1
Lethbridge,75,CA,1571167280,53,49.69,-112.85,50.0,7.2
Mutsu,20,JP,1571167280,93,41.29,141.2,46.994,3.6
Nantucket,1,US,1571167281,58,41.28,-70.1,60.8,5.7
Tagusao,100,PH,1571167281,89,9.19,117.81,76.334,1.129
Chuy,100,UY,1571167281,69,-33.69,-53.46,59.054,6.596
Iberia,61,PE,1571167282,35,-11.41,-69.49,94.874,0.73
Bubaque,32,GW,1571167282,79,11.28,-15.83,82.814,4.716
Ribeira Grande,75,PT,1571167283,88,38.52,-28.7,69.80000000000001,9.8
Hirara,81,JP,1571167283,81,24.8,125.28,76.154,9.525
Rawson,100,AR,1571167283,69,-43.3,-65.11,50.054,8.761
Erzin,40,TR,1571167284,51,36.95,36.2,82.004,3.1
Pitimbu,40,BR,1571167284,65,-7.47,-34.81,82.4,6.2
Kruisfontein,0,ZA,1571167284,78,-34.0,24.73,56.534000000000006,2.099
Chapleau,90,CA,1571167285,81,47.85,-83.4,44.6,2.6
Saint-Joseph,0,FR,1571167285,55,43.56,6.97,64.4,8.2
Puerto Carreno,20,CO,1571167285,62,6.19,-67.49,87.80000000000001,1.59
Saint George,0,GR,1571167286,67,39.45,22.34,62.6,2.001
Tasiilaq,75,GL,1571167286,59,65.61,-37.64,35.6,1.0
Butaritari,100,KI,1571167286,80,3.07,172.79,80.294,5.934
Saldanha,94,PT,1571167286,63,41.42,-6.55,54.014,3.137
Uyemskiy,75,RU,1571167287,93,64.47,40.85,35.6,1.0
Avera,90,US,1571167287,60,33.19,-82.53,71.6,3.204
Tahoua,20,NE,1571167288,30,14.89,5.26,95.0,4.1
Beidao,35,CN,1571167288,87,34.57,105.89,41.414,1.164
Peniche,20,PT,1571167289,67,39.36,-9.38,62.6,3.1
Bollnas,100,SE,1571167289,98,61.35,16.39,42.998000000000005,0.45
Tual,80,ID,1571167290,84,-5.67,132.75,78.85400000000001,2.783
Oliva,100,AR,1571167290,65,-32.04,-63.57,51.314,3.634
Ostrovnoy,78,RU,1571167290,94,68.05,39.51,28.274,2.951
Tuy Hoa,95,VN,1571167291,77,13.08,109.3,81.01400000000001,2.636
Provideniya,90,RU,1571167291,93,64.42,-173.23,39.2,11.0
Cascais,20,PT,1571167291,77,38.7,-9.42,64.4,1.5
Gat,75,SN,1571167292,59,14.69,-16.54,91.4,4.951
College,40,US,1571167292,57,64.86,-147.8,24.997999999999998,2.1
Polaniec,41,PL,1571167292,59,50.43,21.28,64.004,4.6
Novoagansk,100,RU,1571167293,88,61.94,76.66,39.614000000000004,3.801
Zhigansk,93,RU,1571167293,88,66.77,123.37,19.994,6.781
Sitka,0,US,1571167294,28,37.17,-99.65,66.00200000000001,11.18
Tuktoyaktuk,40,CA,1571167294,85,69.44,-133.03,19.4,6.2
Petropavlovsk-Kamchatskiy,0,RU,1571167294,86,53.05,158.65,26.6,1.0
Kodiak,1,US,1571167295,42,39.95,-94.76,64.004,7.2
Los Llanos de Aridane,75,ES,1571167295,64,28.66,-17.92,71.6,4.1
Hami,18,CN,1571167295,31,42.84,93.51,52.754,0.716
Halifax,75,CA,1571167295,82,44.65,-63.58,62.995999999999995,6.2
Emba,20,CY,1571167297,49,34.81,32.42,78.80000000000001,2.1
Deputatskiy,94,RU,1571167297,91,69.3,139.9,5.773999999999997,2.098
Igarka,100,RU,1571167298,96,67.47,86.57,36.914,2.322
Gidole,100,ET,1571167298,73,5.65,37.37,70.574,1.155
Gobabis,100,NA,1571167299,14,-22.45,18.97,84.2,1.5
Karpathos,30,GR,1571167299,83,35.51,27.21,71.6,5.7
Kodinsk,67,RU,1571167299,88,58.6,99.18,39.614000000000004,2.735
Salalah,40,OM,1571167300,74,17.01,54.1,82.4,1.557
Fort-Shevchenko,47,KZ,1571167301,85,44.51,50.26,59.954,5.214
Farah,0,AF,1571167301,33,32.37,62.11,56.714,2.125
Roros,100,NO,1571167301,100,62.57,11.38,37.4,2.6
Oktyabrskoye,75,RU,1571167301,93,56.73,85.44,48.002,6.0
Paamiut,0,GL,1571167302,56,61.99,-49.67,37.634,2.888
East London,23,ZA,1571167302,82,-33.02,27.91,62.6,2.1
Hasaki,75,JP,1571167302,72,35.73,140.83,60.8,3.6
Sorland,40,NO,1571167303,93,67.67,12.69,42.8,2.6
Mastic Beach,1,US,1571167303,42,40.77,-72.85,64.994,1.356
Gombong,46,ID,1571167304,79,-7.19,109.31,75.434,2.801
Lavrentiya,2,RU,1571167304,76,65.58,-170.99,35.294,6.915
Port Hawkesbury,90,CA,1571167304,100,45.62,-61.36,60.008,1.5
Rio Gallegos,0,AR,1571167305,47,-51.62,-69.22,57.2,5.7
Bodden Town,40,KY,1571167305,75,19.28,-81.25,89.6,5.1
Nouadhibou,99,MR,1571167305,73,20.93,-17.03,75.2,4.6
Viedma,99,AR,1571167306,49,-40.81,-62.99,54.194,2.441
Las Guacamayas,60,MX,1571167306,68,18.02,-102.21,87.85400000000001,1.253
Simao,79,CN,1571167306,95,22.76,100.79,58.153999999999996,0.991
Nosy Varika,74,MG,1571167307,86,-20.58,48.53,72.01400000000001,2.305
Ulaanbaatar,0,MN,1571167307,71,47.92,106.92,8.599999999999998,1.0
Koshurnikovo,0,RU,1571167307,76,54.3,93.39,37.094,0.895
Saint-Philippe,1,CA,1571167308,43,45.36,-73.48,57.992000000000004,8.2
Pocatello,1,US,1571167308,32,42.87,-112.44,62.006,2.6
Dakoro,49,NE,1571167308,15,14.51,6.76,95.774,3.515
Klaksvik,83,FO,1571167308,93,62.23,-6.59,48.2,11.3
Tuatapere,98,NZ,1571167309,85,-46.13,167.69,51.008,0.25
Turbat,0,PK,1571167309,16,26.0,63.05,84.974,4.39
Marawi,99,PH,1571167309,89,8.0,124.29,75.992,2.24
Bilma,0,NE,1571167309,15,18.69,12.92,92.534,3.92
Bowen,90,AU,1571167310,94,-20.01,148.25,73.004,2.1
Vredefort,49,ZA,1571167310,45,-27.0,27.37,63.554,1.509
Ponta Delgada,75,PT,1571167310,83,37.73,-25.67,71.006,8.2
Constitucion,20,MX,1571167311,33,23.99,-104.67,80.006,1.0
Praia da Vitoria,40,PT,1571167311,83,38.73,-27.07,73.4,12.343
Tungor,88,RU,1571167311,80,53.39,142.95,33.494,4.311
Vawkavysk,100,BY,1571167312,75,53.15,24.45,60.494,5.55
Lesnoy,79,RU,1571167312,87,59.78,52.13,34.574,4.37
Mayor Pablo Lagerenza,75,PY,1571167313,42,-19.93,-60.77,72.914,5.381
Sokoto,42,NG,1571167313,30,13.06,5.24,89.654,1.466
Vostok,79,RU,1571167313,60,46.45,135.83,27.716,2.799
Kurilsk,77,RU,1571167314,67,45.23,147.88,44.653999999999996,6.122
Pathein,27,MM,1571167314,85,16.78,94.73,77.95400000000001,1.342
Cockburn Town,75,TC,1571167314,66,21.46,-71.14,87.80000000000001,5.1
Parambu,0,BR,1571167314,18,-6.21,-40.7,99.554,3.541
Cuamba,15,MZ,1571167315,39,-14.8,36.54,78.494,4.304
Merrill,1,US,1571167315,35,42.03,-121.6,64.004,1.5
Ilinge,0,ZA,1571167316,70,-31.98,27.04,57.794,2.425
Altamira,75,BR,1571167316,47,-3.2,-52.21,95.0,3.1
Gavirate,90,IT,1571167317,100,45.84,8.72,64.004,7.2
Erenhot,61,CN,1571167317,23,43.65,111.97,39.434,1.635
Lorengau,100,PG,1571167317,74,-2.02,147.27,83.53399999999999,4.657
Mizdah,5,LY,1571167318,44,31.45,12.98,73.634,2.806
Kampong Cham,100,KH,1571167318,88,11.99,105.46,75.614,3.034
Santa Catalina,100,UY,1571167318,90,-33.79,-57.49,53.996,3.58
Seoul,90,KR,1571167319,100,37.57,126.98,50.0,1.0
Nacala,1,MZ,1571167319,81,-14.56,40.69,73.994,3.383
Naberera,0,TZ,1571167319,62,-4.2,36.93,71.294,5.968
Rafraf,40,TN,1571167320,64,37.19,10.18,73.4,5.1
Saint Anthony,1,US,1571167320,26,43.97,-111.68,60.008,5.1
Mnogovershinnyy,17,RU,1571167320,84,53.94,139.92,26.816,2.704
Saskylakh,94,RU,1571167321,98,71.97,114.09,9.914000000000001,0.851
Aljezur,74,PT,1571167321,69,37.31,-8.8,64.004,3.58
Pagudpud,75,PH,1571167322,88,18.56,120.79,78.80000000000001,5.1
Upernavik,100,GL,1571167322,78,72.79,-56.15,27.194,6.436
Baghdad,1,IQ,1571167323,22,33.3,44.38,78.80000000000001,1.5
Bani Walid,0,LY,1571167323,58,31.76,14.0,75.974,7.047
Kloulklubed,40,PW,1571167324,94,7.04,134.26,75.2,3.19
Panzhihua,100,CN,1571167324,94,26.59,101.72,58.514,0.849
Caravelas,45,BR,1571167324,66,-17.73,-39.27,80.474,6.655
Leshukonskoye,16,RU,1571167325,94,64.9,45.76,31.316,2.638
Nome,75,US,1571167325,55,30.04,-94.42,89.99600000000001,5.1
Bajil,17,ES,1571167325,67,38.23,-2.07,48.002,0.89
Flinders,90,AU,1571167326,100,-34.58,150.85,62.995999999999995,5.1
Port-Gentil,40,GA,1571167326,94,-0.72,8.78,78.80000000000001,4.1
Sur,0,OM,1571167326,63,22.57,59.53,78.674,0.573
Bud,100,NO,1571167327,70,62.91,6.91,48.2,5.7
Chickasha,40,US,1571167328,51,35.05,-97.94,86.0,7.2
Kamaishi,0,JP,1571167328,78,39.28,141.86,44.834,2.308
Vitim,100,RU,1571167328,94,59.44,112.57,34.034,3.624
Marsh Harbour,74,BS,1571167328,60,26.54,-77.06,79.574,4.207
Esperance,75,AU,1571167329,100,-33.86,121.89,50.0,3.1
Port Shepstone,7,ZA,1571167329,89,-30.74,30.45,61.214,2.195
Takoradi,67,GH,1571167330,88,4.89,-1.75,77.95400000000001,6.186
Basar,0,IN,1571167330,82,27.98,94.69,60.854,0.914
Regeneracao,20,BR,1571167330,22,-6.24,-42.69,99.73400000000001,2.164
Porto Velho,40,BR,1571167330,52,-8.75,-63.87,91.4,1.0
Nuuk,5,GL,1571167331,44,64.17,-51.74,32.0,7.2
Tura,100,RU,1571167331,96,64.27,100.22,36.014,2.911
Melilla,90,EC,1571167331,78,-0.8,-80.23,77.0,5.1
Iskateley,100,RU,1571167332,97,67.68,53.15,33.854,4.122
Havoysund,40,NO,1571167332,69,71.0,24.66,37.4,2.1
Rajapur,59,BD,1571167332,81,22.57,90.14,76.69399999999999,1.666
Sinnamary,11,GF,1571167333,75,5.38,-52.96,82.094,6.99
Gizo,81,IL,1571167333,57,31.8,34.94,80.006,0.5
Kimbe,61,PG,1571167333,94,-5.56,150.15,72.73400000000001,1.413
Tessalit,3,ML,1571167333,14,20.2,1.01,94.154,3.636
Szczecinek,80,PL,1571167334,89,53.71,16.69,57.002,2.24
Isangel,40,VU,1571167334,88,-19.55,169.27,64.4,1.5
Egvekinot,77,RU,1571167334,89,66.32,-179.17,19.454,6.445
Hanyang,100,CN,1571167335,89,32.14,105.51,56.354,1.262
Kavieng,100,PG,1571167335,74,-2.57,150.8,83.53399999999999,4.422
Ternovka,73,RU,1571167335,67,51.69,41.59,56.354,2.843
Raudeberg,75,NO,1571167335,58,61.99,5.14,53.6,4.6
Bilibino,100,RU,1571167336,88,68.06,166.44,18.014000000000003,1.48
Opuwo,99,NA,1571167336,42,-18.06,13.84,79.214,7.459
Gambela,100,ET,1571167336,92,8.25,34.59,73.274,1.52
Angren,0,UZ,1571167337,40,41.01,70.08,49.694,0.885
Shingu,84,JP,1571167337,63,33.72,135.99,67.154,5.271
Abu Kamal,46,SY,1571167337,15,34.45,40.92,79.394,2.304
Nunoa,54,PE,1571167337,41,-14.48,-70.64,55.814,5.047
Belfast,88,GB,1571167338,87,54.6,-5.93,53.996,3.1
Atambua,73,ID,1571167338,87,-9.11,124.89,71.294,1.103
Belozerskoye,99,RU,1571167339,83,55.82,65.58,41.234,1.231
Misratah,0,LY,1571167339,79,32.38,15.09,75.614,5.384
Kieta,99,PG,1571167339,81,-6.22,155.63,79.03399999999999,2.496
Bandarbeyla,98,SO,1571167340,76,9.49,50.81,81.914,6.601
Comodoro Rivadavia,75,AR,1571167340,44,-45.87,-67.48,60.8,8.7
Dikson,100,RU,1571167340,81,73.51,80.55,25.016,7.361
Prince Rupert,90,CA,1571167341,81,54.32,-130.32,50.0,8.2
Makakilo City,1,US,1571167341,69,21.35,-158.09,84.2,3.1
Umm Lajj,100,SA,1571167341,48,25.02,37.27,84.614,0.436
Malpe,75,IN,1571167342,88,13.35,74.72,77.0,3.1
Oistins,40,BB,1571167342,62,13.07,-59.53,87.80000000000001,7.7
Carbonia,0,IT,1571167343,72,39.17,8.53,69.80000000000001,3.1
Cidreira,100,BR,1571167343,82,-30.17,-50.22,63.914,10.779
Tumbagaan,0,PH,1571167343,70,5.37,120.31,82.814,1.357
Pangai,20,TO,1571167344,83,-19.8,-174.35,78.80000000000001,3.1
Tlacotepec,75,MX,1571167344,35,18.96,-99.93,73.4,2.1
Ruangwa,70,TZ,1571167344,82,-10.07,38.93,74.35400000000001,2.736
Vao,79,EE,1571167345,83,59.1,26.19,41.594,3.323
Dingle,76,PH,1571167345,93,11.0,122.67,73.274,2.763
Talnakh,75,RU,1571167345,100,69.49,88.39,24.8,9.0
Cuiluan,0,CN,1571167345,79,47.72,128.65,24.854,0.602
Avanigadda,93,IN,1571167346,88,16.02,80.92,78.314,2.801
Yulara,47,AU,1571167346,33,-25.24,130.99,73.4,5.1
Kalach-na-Donu,0,RU,1571167346,93,48.69,43.52,51.008,2.0
Saint-Augustin,75,CA,1571167347,43,45.63,-73.98,57.002,4.1
Ahipara,100,NZ,1571167347,100,-35.17,173.16,55.994,13.173
Souillac,51,FR,1571167347,87,45.6,-0.6,60.008,3.6
Trapani,20,IT,1571167347,73,38.02,12.54,75.00200000000001,3.6
Karla,97,EE,1571167348,81,59.37,24.93,44.006,5.1
Diamantino,41,BR,1571167348,36,-14.4,-56.44,95.054,2.426
Terny,50,UA,1571167348,79,50.99,33.98,56.894000000000005,3.21
Amahai,92,ID,1571167349,90,-3.31,129.0,80.006,2.779
Poum,0,MK,1571167349,87,41.28,20.71,51.8,1.0
Paciran,21,ID,1571167349,84,-6.9,112.33,76.874,1.633
Alghero,20,IT,1571167350,77,40.56,8.32,64.4,2.1
Sorong,100,ID,1571167350,99,-0.86,131.25,72.73400000000001,0.93
Chokurdakh,90,RU,1571167350,96,70.62,147.9,8.815999999999999,3.049
Jalu,22,LY,1571167351,29,29.03,21.55,82.274,5.272
Condado,40,BR,1571167351,65,-7.59,-35.1,82.4,6.2
Vila Velha,20,BR,1571167351,66,-3.71,-38.6,84.2,6.2
Iracoubo,11,GF,1571167352,75,5.48,-53.21,82.094,6.99
Necocli,40,CO,1571167352,70,8.42,-76.79,86.0,5.1
Mount Gambier,90,AU,1571167352,93,-37.83,140.78,50.0,2.1
Hualmay,26,PE,1571167353,55,-11.1,-77.61,71.654,4.814
North Platte,1,US,1571167354,26,41.12,-100.77,60.8,11.3
Ambilobe,98,MG,1571167354,76,-13.19,49.05,76.69399999999999,4.568
Clyde River,75,CA,1571167354,73,70.47,-68.59,26.6,5.7
Porto Belo,75,BR,1571167354,93,-27.15,-48.54,66.00200000000001,4.6
Hirschaid,90,DE,1571167355,100,49.82,10.99,62.006,5.7
Butte,1,US,1571167355,45,46.01,-112.54,53.996,2.136
Gorom-Gorom,11,BF,1571167355,12,14.45,-0.24,97.574,4.106
Villa Altagracia,40,DO,1571167356,59,18.67,-70.17,93.2,5.1
Pisco,1,PE,1571167356,30,-13.71,-76.2,71.6,5.1
Menongue,79,AO,1571167356,35,-14.66,17.68,77.95400000000001,2.779
Sawakin,0,SD,1571167357,72,19.1,37.33,85.874,3.078
Mangan,0,IN,1571167357,58,27.5,88.54,50.054,2.171
Changli,100,CN,1571167358,92,30.54,105.42,59.954,2.546
Balsas,70,BR,1571167358,27,-7.53,-46.04,96.674,2.934
Methoni,40,GR,1571167359,77,36.82,21.7,71.99600000000001,2.1
Merauke,63,ID,1571167359,84,-8.49,140.4,73.274,3.002
Portel,98,BR,1571167360,36,-1.94,-50.82,96.674,2.755
Hobyo,65,SO,1571167360,69,5.35,48.53,81.374,4.223
Borovoy,100,RU,1571167360,89,63.23,52.89,30.974,3.259
Havre-Saint-Pierre,75,CA,1571167361,87,50.23,-63.6,46.4,4.6
Westport,1,US,1571167361,31,41.14,-73.36,64.994,2.6
Severo-Kurilsk,67,RU,1571167362,79,50.68,156.12,34.394,13.289
Floriano,38,BR,1571167362,17,-6.77,-43.02,105.134,2.237
Lagoa,71,PT,1571167362,59,37.14,-8.45,64.4,4.6
Conceicao da Barra,17,BR,1571167362,77,-18.59,-39.73,77.95400000000001,8.496
Acari,0,BR,1571167363,27,-6.44,-36.64,93.974,8.528
Kirkwood,16,ZA,1571167363,72,-33.4,25.44,62.6,2.1
Goroka,73,PG,1571167363,93,-6.07,145.39,56.174,2.183
Quiindy,100,PY,1571167363,93,-25.98,-57.23,63.554,3.0
Remanso,83,BR,1571167364,22,-9.62,-42.08,96.854,3.076
Te Anau,86,NZ,1571167364,95,-45.41,167.72,44.114000000000004,1.256
Artigas,100,BR,1571167365,82,-30.4,-56.46,59.954,9.353
Tirat Karmel,61,IL,1571167365,66,32.76,34.97,77.0,2.68
Inhambane,20,MZ,1571167365,78,-23.87,35.38,73.4,2.1
Teguldet,100,RU,1571167366,89,57.31,88.17,47.894,3.282
Wajir,20,KE,1571167366,74,1.75,40.07,82.4,5.66
Port Macquarie,90,AU,1571167367,100,-31.43,152.91,60.8,1.0
Sciacca,20,IT,1571167367,73,37.51,13.08,71.6,2.1
Okhotsk,0,RU,1571167367,61,59.36,143.24,17.294,7.84
Tucupita,81,VE,1571167368,79,9.06,-62.05,84.974,2.098
Tilichiki,100,RU,1571167368,75,60.47,166.1,24.116,4.354
Forbes,10,AU,1571167369,64,-33.38,148.01,55.994,1.861
Tikrit,30,IQ,1571167369,8,34.62,43.68,80.114,4.024
Luba,6,PH,1571167369,86,17.32,120.7,70.394,2.258
Coihaique,90,CL,1571167369,45,-45.58,-72.07,64.4,7.7
Springdale,90,US,1571167370,78,36.19,-94.13,73.994,1.5
Ulcinj,0,ME,1571167370,87,41.93,19.22,60.8,1.0
Kazanskaya,0,RU,1571167370,43,45.41,40.44,64.004,1.924
Melfi,40,IT,1571167371,71,41.0,15.66,69.80000000000001,2.1
Denpasar,20,ID,1571167371,94,-8.65,115.22,77.0,1.5
Cabo San Lucas,20,MX,1571167372,78,22.89,-109.91,86.0,4.1
Edd,75,ER,1571167372,51,13.93,41.69,86.594,2.291
Sola,71,TZ,1571167372,34,-3.17,33.8,79.574,7.441
Belen,1,US,1571167373,13,34.66,-106.78,71.99600000000001,2.129
Fez,40,MA,1571167373,59,34.03,-5.02,66.2,3.6
Penticton,90,CA,1571167373,57,49.49,-119.59,51.8,6.7
Lata,15,IN,1571167374,74,30.78,78.62,27.554,1.111
Pevek,100,RU,1571167374,78,69.7,170.27,32.954,5.746
Fortuna,1,US,1571167374,76,40.6,-124.16,64.004,3.6
Alofi,100,NU,1571167374,74,-19.06,-169.92,78.80000000000001,4.1
Shaoguan,4,CN,1571167375,91,24.81,113.59,62.294,1.083
Abha,15,SA,1571167376,25,18.22,42.5,68.0,6.2
Geraldton,90,CA,1571167376,61,49.72,-86.95,46.4,2.1
Portland,20,US,1571167376,30,43.66,-70.25,60.998000000000005,4.457
Drumnadrochit,40,GB,1571167376,93,57.34,-4.48,50.0,2.1
Sao Jose dos Pinhais,90,BR,1571167377,82,-25.53,-49.21,62.006,6.7
Ancud,90,CL,1571167377,81,-41.87,-73.83,51.8,4.1
Taquarana,18,BR,1571167377,54,-9.65,-36.49,82.634,6.352
Kungurtug,0,RU,1571167378,49,50.6,97.53,30.416,1.817
Kawalu,93,ID,1571167378,92,-7.38,108.21,69.314,1.077
Nakusp,100,CA,1571167378,84,50.24,-117.8,42.007999999999996,1.34
Padang,79,ID,1571167379,97,-0.92,100.36,67.69399999999999,0.533
Oksfjord,75,NO,1571167379,93,70.24,22.35,35.6,1.0
Calama,0,CL,1571167379,9,-22.46,-68.93,78.008,8.7
Dakar,40,SN,1571167778,79,14.69,-17.45,84.2,3.1
Naryan-Mar,100,RU,1571167380,97,67.67,53.09,33.854,4.122
Guymon,1,US,1571167380,24,36.68,-101.48,66.2,7.7
Ayan,0,IR,1571167380,37,38.23,44.7,45.194,0.569
Cam Ranh,75,VN,1571167381,88,11.92,109.15,78.80000000000001,2.6
Port-Cartier,20,CA,1571167381,76,50.03,-66.88,48.992000000000004,4.1
Bulungu,72,CD,1571167381,89,-4.54,18.6,73.274,0.609
Sudak,30,UA,1571167382,66,44.85,34.97,55.814,1.014
Chicama,20,PE,1571167382,77,-7.84,-79.15,68.0,4.6
Cairns,11,AU,1571167383,88,-16.92,145.77,66.2,1.0
Aksu,76,KZ,1571167383,93,52.04,76.93,41.0,5.0
Gushikawa,1,JP,1571167383,83,26.35,127.87,77.0,3.1
Dudinka,75,RU,1571167384,100,69.41,86.18,24.8,9.0
Limbang,75,BN,1571167384,94,4.75,115.01,80.6,2.6
Cuenca,75,EC,1571167384,45,-2.9,-79.0,66.2,3.6
Walvis Bay,0,NA,1571167385,72,-22.95,14.51,64.4,5.7
San Luis,89,AR,1571167385,42,-33.3,-66.34,62.474000000000004,2.636
Talavera de la Reina,97,ES,1571167386,75,39.96,-4.83,51.998000000000005,2.114
Nadvoitsy,86,RU,1571167386,98,63.89,34.27,35.114,1.651
Broome,82,GB,1571167386,93,52.47,1.45,55.994,1.5
Slave Lake,90,CA,1571167387,78,55.28,-114.77,35.6,8.7
Oriximina,96,BR,1571167387,42,-1.77,-55.87,94.334,1.155
Airai,99,TL,1571167387,95,-8.93,125.41,64.45400000000001,0.528
Prince Albert,90,CA,1571167388,60,53.2,-105.75,39.2,1.5
Najran,40,SA,1571167389,27,17.54,44.22,77.0,3.1
Rome,40,IT,1571167389,82,41.89,12.48,69.008,4.6
Tres Arroyos,98,AR,1571167389,38,-38.38,-60.28,57.794,2.856
Margate,20,AU,1571167390,86,-43.03,147.26,41.0,5.7
Alice Town,86,BS,1571167390,73,25.72,-79.3,79.574,4.874
Hanzhong,100,CN,1571167391,92,33.08,107.03,49.334,0.935
Vardo,1,US,1571167391,37,39.62,-77.74,71.99600000000001,3.056
Kawambwa,92,ZM,1571167392,62,-9.8,29.07,72.914,4.43
Brae,6,GB,1571167392,87,60.4,-1.35,51.8,6.7
High Rock,40,BS,1571167393,66,26.63,-78.28,84.2,4.1
Chapais,90,CA,1571167393,93,49.78,-74.86,39.2,6.2
Northam,0,AU,1571167394,87,-31.65,116.67,44.6,2.15
Naze,40,NG,1571167394,83,5.43,7.07,78.80000000000001,1.5
Charlestown,1,US,1571167394,36,41.38,-71.64,64.4,2.6
Progreso,90,UY,1571167395,76,-34.68,-56.22,57.002,6.2
Verkh-Usugli,75,RU,1571167395,71,52.7,115.17,31.694,1.409
Davenda,48,RU,1571167395,82,53.56,119.32,27.194,1.035
Grindavik,75,IS,1571167396,66,63.84,-22.43,51.8,16.5
Olavarria,100,AR,1571167396,68,-36.89,-60.32,51.998000000000005,4.329
Nioro,31,GM,1571167396,58,13.79,-15.05,89.474,1.85
Anjozorobe,40,MG,1571167397,93,-18.4,47.88,62.6,3.6
Volodarka,68,UA,1571167397,59,49.52,29.93,59.594,2.399
Half Moon Bay,90,US,1571167397,76,37.46,-122.43,73.004,4.6
Beringovskiy,100,RU,1571167398,91,63.05,179.32,39.974,16.081
Semirom,57,IR,1571167398,71,31.41,51.57,42.314,1.351
Tautira,20,PF,1571167398,69,-17.73,-149.15,82.4,1.5
Urengoy,92,RU,1571167398,92,65.96,78.37,39.434,1.852
Barcelos,47,BR,1571167399,46,-0.97,-62.93,93.434,1.551
Sobolevo,98,RU,1571167399,86,54.43,31.9,47.174,3.324
Stawell,100,AU,1571167400,96,-37.06,142.77,49.334,1.712
Arlit,0,NE,1571167400,12,18.74,7.39,97.034,5.274
Broken Hill,75,AU,1571167400,36,-31.97,141.45,64.4,3.6
Sao Jose da Coroa Grande,13,BR,1571167400,72,-8.9,-35.15,78.674,5.768
Petauke,37,ZM,1571167401,46,-14.25,31.33,75.254,4.002
Vanimo,17,PG,1571167402,73,-2.67,141.3,83.174,2.518
Kareli,0,GE,1571167402,47,42.02,43.89,57.074,0.631
Turbo,40,CO,1571167402,70,8.09,-76.73,86.0,5.1
Launceston,90,AU,1571167402,93,-41.43,147.14,42.998000000000005,2.1
Bani,66,YE,1571167403,67,16.02,42.93,87.134,2.649
Agadir,0,MA,1571167403,82,30.42,-9.58,66.2,6.7
Encheng,11,CN,1571167404,85,22.74,107.09,69.134,1.082
Mazamari,9,PE,1571167404,61,-11.33,-74.53,77.054,0.761
Ghugus,5,IN,1571167404,74,19.93,79.13,72.914,1.869
Cuajinicuilapa,75,MX,1571167404,60,16.47,-98.41,90.554,2.097
Kalmunai,100,LK,1571167405,77,7.42,81.82,83.714,5.853
Touros,20,BR,1571167405,61,-5.2,-35.46,82.4,6.2
Ngunguru,15,NZ,1571167405,87,-35.62,174.5,55.994,6.26
Leirvik,75,NO,1571167405,81,59.78,5.5,51.998000000000005,3.1
Wuan,100,CN,1571167406,67,31.68,112.0,55.994,3.658
Pangkalanbuun,92,ID,1571167406,97,-2.68,111.62,74.53399999999999,0.595
Sayanogorsk,0,RU,1571167406,63,53.09,91.41,43.214,2.189
Panguna,98,PG,1571167407,99,-6.32,155.48,70.934,2.044
Port Lincoln,100,AU,1571167407,93,-34.72,135.86,52.754,3.747
Xuddur,72,SO,1571167407,71,4.12,43.89,78.494,2.282
Taltal,0,CL,1571167408,51,-25.41,-70.49,65.714,3.639
Kiunga,100,PG,1571167408,98,-6.12,141.3,73.094,0.41
Puebloviejo,40,CO,1571167408,70,10.99,-74.28,89.6,5.1
Hun,20,BE,1571167409,87,50.34,4.87,55.994,4.6
Beloha,0,MG,1571167409,69,-25.17,45.06,69.314,9.394
Derzhavinsk,100,KZ,1571167409,86,51.1,66.31,49.334,15.28
Talas,59,KG,1571167409,49,42.52,72.24,45.014,1.374
Demba,100,CD,1571167410,96,-5.47,22.27,71.114,1.185
Dauriya,45,RU,1571167410,61,49.93,116.85,36.734,1.782
Hrastnik,0,SI,1571167410,87,46.14,15.09,62.995999999999995,2.6
Boyuibe,90,BO,1571167411,77,-20.43,-63.28,62.6,2.671
Dalbandin,0,PK,1571167411,23,28.9,64.41,68.95400000000001,3.881
Constantine,75,DZ,1571167411,72,36.36,6.61,64.4,4.6
Namatanai,100,PG,1571167412,75,-3.66,152.44,80.834,2.036
Mercedes,90,UY,1571167412,82,-33.25,-58.03,57.992000000000004,3.1
Rio Grande,75,BR,1571167412,59,-32.03,-52.1,66.2,8.2
Ahuimanu,20,US,1571167413,54,21.44,-157.84,84.2,5.1
Smithers,90,CA,1571167413,87,54.78,-127.17,42.8,4.6
Luwuk,38,ID,1571167413,81,-0.95,122.79,80.114,4.137
Yakima,40,US,1571167414,44,46.6,-120.51,57.002,0.156
Sibu,75,MY,1571167414,94,2.29,111.83,75.00200000000001,1.5
Xichang,54,CN,1571167415,97,27.88,102.25,47.354,0.95
Lakatoro,91,VU,1571167415,100,-16.11,167.42,75.2,4.6
Ramhormoz,0,IR,1571167415,20,31.28,49.6,76.874,1.852
Tulun,7,RU,1571167416,88,54.56,100.58,34.034,1.565
Lubango,100,AO,1571167416,84,-14.92,13.49,61.394,4.17
Bangkal,93,ID,1571167416,91,-2.61,115.39,73.994,0.747
Iznoski,100,RU,1571167417,86,54.99,35.31,41.054,1.983
Navirai,68,BR,1571167417,47,-23.07,-54.19,88.754,2.211
Salmon Arm,100,CA,1571167417,66,50.7,-119.29,48.992000000000004,1.79
Antalaha,26,MG,1571167418,79,-14.9,50.28,77.414,3.652
Nelson Bay,0,AU,1571167418,93,-32.72,152.14,60.998000000000005,2.6
Severomuysk,79,RU,1571167418,84,56.17,113.57,26.816,1.584
Catuday,0,PH,1571167418,81,16.29,119.81,81.374,5.21
Tawang,0,BT,1571167419,83,27.59,91.87,32.954,1.834
Vasto,18,IT,1571167419,82,42.12,14.71,69.008,1.5
Kahului,40,US,1571167420,65,20.89,-156.47,82.4,6.2
Olinda,90,AU,1571167420,82,-37.84,145.39,55.994,1.075
Nizhniy Kuranakh,97,RU,1571167420,97,58.84,125.49,25.016,1.522
Karratha,0,AU,1571167421,75,-20.74,116.85,77.054,6.004
Taoudenni,47,ML,1571167421,18,22.68,-3.98,96.674,4.356
Stephenville,90,CA,1571167421,87,48.55,-58.59,51.8,4.6
Chumphon,100,TH,1571167421,92,10.5,99.18,74.894,0.749
Taman,0,RU,1571167422,72,45.22,36.72,62.6,5.0
Homer,90,US,1571167422,69,59.64,-151.54,35.6,1.5
Meulaboh,100,ID,1571167422,80,4.14,96.13,80.474,2.964
Kamarion,20,GR,1571167423,88,36.8,25.82,69.008,3.1
Kavaratti,100,IN,1571167423,68,10.57,72.64,82.994,1.757
Grass Valley,1,US,1571167423,26,39.22,-121.06,78.008,2.6
Capaccio,0,IT,1571167424,83,40.42,15.08,69.008,1.829
Millerovo,0,RU,1571167424,63,48.92,40.39,59.414,2.505
Lyubech,89,UA,1571167425,84,51.7,30.66,58.873999999999995,2.883
George,32,MW,1571167425,43,-15.35,34.83,78.314,3.26
Tazovskiy,100,RU,1571167426,96,67.47,78.7,31.694,9.748
Isabela,76,PH,1571167426,87,10.2,122.99,71.294,1.806
Aripuana,46,BR,1571167426,36,-9.17,-60.63,95.594,0.61
Millville,1,US,1571167427,30,39.4,-75.04,69.99799999999999,1.5
Primorsko-Akhtarsk,0,RU,1571167427,50,46.05,38.18,63.014,4.239
Manzanillo,40,MX,1571167427,66,19.05,-104.32,91.4,6.2
Tecoanapa,75,MX,1571167428,79,16.99,-99.26,86.0,5.1
Dong Xoai,92,VN,1571167428,94,11.53,106.92,72.914,1.143
Narsaq,5,GL,1571167428,55,60.91,-46.05,35.6,0.71
Pochutla,90,MX,1571167429,59,15.74,-96.47,89.6,1.78
North Bend,40,US,1571167429,82,43.41,-124.22,59.0,2.6
Port Hardy,90,CA,1571167429,87,50.7,-127.42,50.0,12.9
Batemans Bay,99,AU,1571167430,83,-35.71,150.18,59.0,0.45
Tateyama,10,JP,1571167430,97,36.66,137.31,55.004,1.307
Porto Novo,75,BR,1571167431,60,-23.68,-45.44,75.2,4.6
Yunyang,100,CN,1571167431,88,32.84,110.81,47.534000000000006,1.928
Bethanien,4,NA,1571167431,25,-26.5,17.16,76.874,5.726
Baijiantan,97,CN,1571167432,47,45.63,85.18,57.614000000000004,15.146
Rosario,90,UY,1571167432,93,-34.31,-57.35,53.996,6.7
San Pedro,100,AR,1571167432,83,-33.68,-59.66,53.006,3.13
Pangoa,0,PE,1571167433,39,-12.12,-73.0,91.45400000000001,2.506
Kalabo,54,ZM,1571167433,15,-15.0,22.67,82.994,3.462
Chhoti Sadri,0,IN,1571167434,52,24.38,74.7,73.274,1.812
Pearl Lagoon,75,NI,1571167434,74,12.34,-83.67,84.2,2.1
Mimongo,99,GA,1571167435,97,-1.62,11.6,69.674,1.206
Novyy Urengoy,93,RU,1571167435,94,66.08,76.63,38.174,0.412
Puerto Lempira,75,HN,1571167436,66,15.27,-83.77,87.80000000000001,2.1
Ust-Omchug,96,RU,1571167436,100,61.13,149.63,-1.0660000000000025,1.33
Oeiras do Para,19,BR,1571167436,39,-2.0,-49.85,95.95400000000001,3.289
Kavarna,75,BG,1571167436,87,43.43,28.33,60.8,2.3
Kolpashevo,94,RU,1571167437,88,58.31,82.9,43.214,3.88
Rocha,95,UY,1571167437,70,-34.48,-54.34,57.614000000000004,6.298
Iquitos,75,PE,1571167437,100,-3.75,-73.25,42.8,3.6
Ilhabela,2,BR,1571167813,81,-23.78,-45.36,75.09200000000001,4.174
Mecca,56,SA,1571167438,51,21.43,39.83,87.314,1.978
Tumen,20,CN,1571167439,48,42.97,129.84,36.014,1.31
Zhanakorgan,47,KZ,1571167439,56,43.91,67.25,54.914,2.364
Korcula,0,HR,1571167439,77,42.96,17.14,60.8,2.1
